{"version": 0.6, "generator": "Overpass API 0.7.57.1 74a55df1", "osm3s": {"timestamp_osm_base": "2021-12-08T18:13:54Z", "copyright": "The data included in this document is from www.openstreetmap.org. The data is made available under ODbL."}, "elements": [{"type": "node", "id": 440873517, "lat": 9.7361459, "lon": -82.842103, "tags": {"addr:city": "Cahuita", "addr:full": "Centro Comercial White Sand, entrada principal a Cahuita", "amenity": "bank", "atm": "yes", "name": "Banco de Costa Rica", "opening_hours": "Mo-Fr 09:00-16:00", "phone": "2755 0401 2755 0396 2755 0400 2755 0421", "source": "KG Ground Survey 2015"}}, {"type": "node", "id": 1445519340, "lat": 9.6577837, "lon": -82.754851, "tags": {"amenity": "bank", "name": "exchange"}}, {"type": "node", "id": 3398455834, "lat": 9.6550576, "lon": -82.7553972}, {"type": "node", "id": 3398455835, "lat": 9.6551609, "lon": -82.7555106}, {"type": "node", "id": 3398455837, "lat": 9.6551554, "lon": -82.7553054}, {"type": "node", "id": 3398455838, "lat": 9.655258, "lon": -82.7554183}, {"type": "node", "id": 3398455842, "lat": 9.6553592, "lon": -82.7553783}, {"type": "node", "id": 3398455846, "lat": 9.6554131, "lon": -82.7555865}, {"type": "node", "id": 3398455847, "lat": 9.6554868, "lon": -82.7555166}, {"type": "node", "id": 3977112317, "lat": 9.6553317, "lon": -82.7553484}, {"type": "node", "id": 5622815587, "lat": 9.6241278, "lon": -82.854207}, {"type": "node", "id": 5622815588, "lat": 9.6241528, "lon": -82.8540636}, {"type": "node", "id": 5622815589, "lat": 9.6238499, "lon": -82.8540092}, {"type": "node", "id": 5622815590, "lat": 9.6238249, "lon": -82.8541526}, {"type": "way", "id": 332707002, "nodes": [3398455835, 3398455838, 3398455837, 3398455834, 3398455835], "tags": {"addr:city": "Cahuita", "amenity": "bank", "building": "yes", "name": "Banco Nacional", "opening_hours": "Mo-Fr 08:30-15:45", "source": "KG Ground Survey 2015"}}, {"type": "way", "id": 394740928, "nodes": [3398455846, 3398455847, 3398455842, 3977112317, 3398455838, 3398455846], "tags": {"addr:city": "Cahuita", "amenity": "bank", "atm": "yes", "building": "yes", "name": "Banco de Costa Rica", "source": "KG Ground Survey 2015"}}, {"type": "way", "id": 588768955, "nodes": [5622815587, 5622815588, 5622815589, 5622815590, 5622815587], "tags": {"addr:city": "Bribri", "addr:street": "Avenida Central", "amenity": "bank", "atm": "yes", "brand": "Banco Nacional de Costa Rica", "brand:en": "National Bank of Costa Rica", "brand:es": "Banco Nacional de Costa Rica", "brand:wikidata": "Q2917708", "brand:wikipedia": "es:Banco Nacional de Costa Rica", "building": "yes", "name": "Banco Nacional", "name:en": "National Bank", "name:es": "Banco Nacional", "official_name": "Banco Nacional de Costa Rica", "official_name:en": "National Bank of Costa Rica", "official_name:es": "Banco Nacional de Costa Rica", "short_name": "BNCR"}}]}