{"version": 0.6, "generator": "Overpass API 0.7.57.1 74a55df1", "osm3s": {"timestamp_osm_base": "2021-12-08T18:13:54Z", "copyright": "The data included in this document is from www.openstreetmap.org. The data is made available under ODbL."}, "elements": [{"type": "node", "id": 814344073, "lat": 8.4428698, "lon": -82.9104369, "tags": {"addr:city": "Laurel", "addr:housename": "Banco Nacional", "amenity": "bank", "atm": "yes", "brand": "Banco Nacional de Costa Rica", "brand:en": "National Bank of Costa Rica", "brand:es": "Banco Nacional de Costa Rica", "brand:wikidata": "Q2917708", "brand:wikipedia": "es:Banco Nacional de Costa Rica", "name": "Banco Nacional", "name:en": "National Bank", "name:es": "Banco Nacional", "official_name": "Banco Nacional de Costa Rica", "official_name:en": "National Bank of Costa Rica", "official_name:es": "Banco Nacional de Costa Rica", "short_name": "BNCR"}}, {"type": "node", "id": 814479585, "lat": 8.6472886, "lon": -82.9435215, "tags": {"addr:city": "Corredor", "addr:street": "Calle 5", "amenity": "bank", "atm": "yes", "brand": "Banco Nacional de Costa Rica", "brand:wikidata": "Q2917708", "brand:wikipedia": "es:Banco Nacional de Costa Rica", "name": "Banco Nacional", "official_name": "Banco Nacional de Costa Rica", "short_name": "BNCR"}}, {"type": "node", "id": 875617831, "lat": 8.5309224, "lon": -82.8374313, "tags": {"amenity": "bank", "name": "Banco Nacional de Panama"}}, {"type": "node", "id": 879780691, "lat": 8.5347398, "lon": -82.8393578, "tags": {"addr:city": "Canoas", "addr:street": "Carretera Interamericana", "amenity": "bank", "atm": "yes", "name": "Banco de Costa Rica"}}, {"type": "node", "id": 2297148718, "lat": 8.2729316, "lon": -82.8594865, "tags": {"amenity": "bank", "name": "BNP Paribas"}}, {"type": "node", "id": 2297152197, "lat": 8.2743135, "lon": -82.8607722, "tags": {"addr:city": "Puerto Armuelles", "addr:street": "Avenida San Jos\u00e9", "amenity": "bank", "name": "Cacsa"}}, {"type": "node", "id": 2422985097, "lat": 8.2731001, "lon": -82.8591461, "tags": {"amenity": "bank", "name": "BNP Paribas"}}, {"type": "node", "id": 3728651531, "lat": 8.6475815, "lon": -82.9435291, "tags": {"addr:city": "Ciudad Neily", "amenity": "bank", "atm": "yes", "name": "Coopeservidores"}}, {"type": "node", "id": 4274828239, "lat": 8.6497075, "lon": -82.9434833}, {"type": "node", "id": 4274828240, "lat": 8.6496781, "lon": -82.9431286}, {"type": "node", "id": 4274828241, "lat": 8.649433, "lon": -82.9431494}, {"type": "node", "id": 4274828242, "lat": 8.6494624, "lon": -82.943504}, {"type": "node", "id": 4550075491, "lat": 8.2919525, "lon": -82.8471653, "tags": {"addr:street": "Paso Canoas-Puerto Armuelles", "amenity": "bank", "information": "yes", "name": "Coopachi r.l.", "opening_hours": "Mo-Fr 09:00-15:00"}}, {"type": "node", "id": 6314598969, "lat": 8.4458211, "lon": -82.8510795, "tags": {"amenity": "bank", "name": "Coopemapachi, R.L"}}, {"type": "node", "id": 6757609847, "lat": 8.4438625, "lon": -82.9102347, "tags": {"addr:city": "Laurel", "addr:street": "Ruta Nacional 238", "amenity": "bank", "name": "Coopealianza"}}, {"type": "node", "id": 6852650131, "lat": 8.6477913, "lon": -82.9434829, "tags": {"addr:city": "Corredor", "addr:street": "Avenida 3", "amenity": "bank", "atm": "yes", "name": "Grupo Mutual"}}, {"type": "way", "id": 428375535, "nodes": [4274828239, 4274828240, 4274828241, 4274828242, 4274828239], "tags": {"addr:city": "Ciudad Neily", "addr:street": "Avenida 7", "amenity": "bank", "atm": "yes", "building": "yes", "name": "Banco Popular"}}]}