{"version": 0.6, "generator": "Overpass API 0.7.57.1 74a55df1", "osm3s": {"timestamp_osm_base": "2021-12-08T17:46:39Z", "copyright": "The data included in this document is from www.openstreetmap.org. The data is made available under ODbL."}, "elements": [{"type": "node", "id": 1226920107, "lat": 10.2675462, "lon": -85.586636}, {"type": "node", "id": 1226920154, "lat": 10.267571, "lon": -85.5869778}, {"type": "node", "id": 1226920159, "lat": 10.2673817, "lon": -85.5869553}, {"type": "node", "id": 1226920162, "lat": 10.2674223, "lon": -85.5866443}, {"type": "node", "id": 1416827864, "lat": 10.2991907, "lon": -85.8411354, "tags": {"addr:city": "Tamarindo", "amenity": "bank", "atm": "yes", "name": "Banco Nacional", "source": "KG Ground Survey 2015"}}, {"type": "node", "id": 3821680957, "lat": 10.2968857, "lon": -85.8397071}, {"type": "node", "id": 3821680958, "lat": 10.2970896, "lon": -85.8396378}, {"type": "node", "id": 3821680959, "lat": 10.2969854, "lon": -85.839321}, {"type": "node", "id": 3821680960, "lat": 10.2967815, "lon": -85.8393903}, {"type": "node", "id": 3969072318, "lat": 10.2676144, "lon": -85.5869416}, {"type": "way", "id": 106660349, "nodes": [1226920154, 3969072318, 1226920107, 1226920162, 1226920159, 1226920154], "tags": {"addr:city": "Santa Cruz", "addr:street": "Calle 1", "amenity": "bank", "atm": "yes", "building": "yes", "name": "Banco Nacional", "source": "KG Ground Survey 2015"}}, {"type": "way", "id": 378782756, "nodes": [3821680957, 3821680958, 3821680959, 3821680960, 3821680957], "tags": {"addr:city": "Tamarindo", "addr:street": "Avenida Central", "amenity": "bank", "atm": "yes", "brand": "Banco Nacional de Costa Rica", "brand:en": "National Bank of Costa Rica", "brand:es": "Banco Nacional de Costa Rica", "brand:wikidata": "Q2917708", "brand:wikipedia": "es:Banco Nacional de Costa Rica", "building": "yes", "name": "Banco Nacional", "name:en": "National Bank", "name:es": "Banco Nacional", "official_name": "Banco Nacional de Costa Rica", "official_name:en": "National Bank of Costa Rica", "official_name:es": "Banco Nacional de Costa Rica", "short_name": "BNCR", "source": "KG Ground Survey 2015"}}]}