{"version": 0.6, "generator": "Overpass API 0.7.57.1 74a55df1", "osm3s": {"timestamp_osm_base": "2021-12-08T17:46:39Z", "copyright": "The data included in this document is from www.openstreetmap.org. The data is made available under ODbL."}, "elements": [{"type": "node", "id": 3062332223, "lat": 11.0701269, "lon": -85.629583}, {"type": "node", "id": 3062332225, "lat": 11.0701852, "lon": -85.6293633}, {"type": "node", "id": 3062333333, "lat": 11.0702424, "lon": -85.6296148}, {"type": "node", "id": 3062333335, "lat": 11.070256, "lon": -85.6295638}, {"type": "node", "id": 3062333337, "lat": 11.0703097, "lon": -85.6295786}, {"type": "node", "id": 3062333341, "lat": 11.0703544, "lon": -85.62941}, {"type": "way", "id": 302006416, "nodes": [3062333337, 3062333335, 3062333333, 3062332223, 3062332225, 3062333341, 3062333337], "tags": {"addr:city": "La Cruz", "addr:street": "Carretera Interamericana Norte", "amenity": "bank", "atm": "yes", "brand": "Banco Nacional de Costa Rica", "brand:en": "National Bank of Costa Rica", "brand:es": "Banco Nacional de Costa Rica", "brand:wikidata": "Q2917708", "brand:wikipedia": "es:Banco Nacional de Costa Rica", "building": "yes", "name": "Banco Nacional", "name:en": "National Bank", "name:es": "Banco Nacional", "official_name": "Banco Nacional de Costa Rica", "official_name:en": "National Bank of Costa Rica", "official_name:es": "Banco Nacional de Costa Rica", "short_name": "BNCR"}}]}