{"version": 0.6, "generator": "Overpass API 0.7.57.1 74a55df1", "osm3s": {"timestamp_osm_base": "2021-12-08T18:13:54Z", "copyright": "The data included in this document is from www.openstreetmap.org. The data is made available under ODbL."}, "elements": [{"type": "node", "id": 1443620288, "lat": 8.8196699, "lon": -82.971407}, {"type": "node", "id": 1443620290, "lat": 8.819679, "lon": -82.9713425}, {"type": "node", "id": 1443620293, "lat": 8.8197039, "lon": -82.971202}, {"type": "node", "id": 1443620294, "lat": 8.8194584, "lon": -82.9713763}, {"type": "node", "id": 1443620295, "lat": 8.8194864, "lon": -82.9711712}, {"type": "node", "id": 1443621971, "lat": 8.8195429, "lon": -82.9713889}, {"type": "node", "id": 1443621980, "lat": 8.8194996, "lon": -82.9713819}, {"type": "node", "id": 1443669596, "lat": 8.8181687, "lon": -82.9711536}, {"type": "node", "id": 1443669597, "lat": 8.8181693, "lon": -82.9708448}, {"type": "node", "id": 1443669598, "lat": 8.8182642, "lon": -82.9711532}, {"type": "node", "id": 1443669599, "lat": 8.8182654, "lon": -82.9708452}, {"type": "node", "id": 1443670608, "lat": 8.8181682, "lon": -82.9709575}, {"type": "node", "id": 2267513006, "lat": 8.8183488, "lon": -82.9706081, "tags": {"addr:city": "San Vito", "addr:full": "75 metros Sur de la Iglesia Cat\u00f3lica.", "amenity": "bank", "atm": "yes", "name": "Banco Popular", "opening_hours": "Mo-Fr 08:45-16:30; Sa 08:15-11:30", "phone": "2773-4000 / 2773-4947"}}, {"type": "node", "id": 8741120028, "lat": 8.6794856, "lon": -83.0693543}, {"type": "node", "id": 8741120029, "lat": 8.679349, "lon": -83.0691035}, {"type": "node", "id": 8741120030, "lat": 8.6792057, "lon": -83.0691715}, {"type": "node", "id": 8741120031, "lat": 8.6793104, "lon": -83.0693509}, {"type": "node", "id": 8741120032, "lat": 8.6793754, "lon": -83.0693175}, {"type": "node", "id": 8741120033, "lat": 8.6794151, "lon": -83.06939}, {"type": "node", "id": 8741120193, "lat": 8.6777628, "lon": -83.0674933}, {"type": "node", "id": 8741120194, "lat": 8.6776438, "lon": -83.0672409}, {"type": "node", "id": 8741120195, "lat": 8.6776093, "lon": -83.0672312}, {"type": "node", "id": 8741120196, "lat": 8.6774059, "lon": -83.0673089}, {"type": "node", "id": 8741120197, "lat": 8.677498, "lon": -83.0674777}, {"type": "node", "id": 8741120198, "lat": 8.6775844, "lon": -83.067437}, {"type": "node", "id": 8741120199, "lat": 8.6776093, "lon": -83.0674971}, {"type": "node", "id": 8741120200, "lat": 8.6775786, "lon": -83.0675185}, {"type": "node", "id": 8741120201, "lat": 8.6776208, "lon": -83.0676116}, {"type": "node", "id": 8741120202, "lat": 8.6776765, "lon": -83.0675787}, {"type": "way", "id": 131120291, "nodes": [1443620293, 1443620290, 1443620288, 1443621971, 1443621980, 1443620294, 1443620295, 1443620293], "tags": {"addr:city": "San Vito", "amenity": "bank", "atm": "yes", "building": "yes", "name": "Banco Nacional", "opening_hours": "Mo-Fr 08:30-20:00", "operator": "Banco Nacional"}}, {"type": "way", "id": 131123848, "nodes": [1443669599, 1443669598, 1443669596, 1443670608, 1443669597, 1443669599], "tags": {"addr:city": "San Vito", "amenity": "bank", "atm": "yes", "name": "Coopealianza", "note": "8am-5pm, Lunes-Viernes (Mon-Fri)", "opening_hours": "Mo-Fr 08:30-20:00", "operator": "Coopealianza", "phone": "+506 2773-3763", "website": "https://www.coopealianza.fi.cr/index.php/contactenos/lista-de-oficinas"}}, {"type": "way", "id": 944104504, "nodes": [8741120028, 8741120029, 8741120030, 8741120031, 8741120032, 8741120033, 8741120028], "tags": {"amenity": "bank", "brand": "Banco Nacional de Costa Rica", "brand:en": "National Bank of Costa Rica", "brand:es": "Banco Nacional de Costa Rica", "brand:wikidata": "Q2917708", "brand:wikipedia": "es:Banco Nacional de Costa Rica", "building": "yes", "name": "Banco Nacional Golfito", "name:en": "Golfito National Bank", "name:es": "Banco Nacional Golfito", "name:it": "Banca Nazionale Golfito", "official_name": "Banco Nacional de Costa Rica", "official_name:en": "National Bank of Costa Rica", "official_name:es": "Banco Nacional de Costa Rica", "short_name": "BNCR"}}, {"type": "way", "id": 944104535, "nodes": [8741120193, 8741120194, 8741120195, 8741120196, 8741120197, 8741120198, 8741120199, 8741120200, 8741120201, 8741120202, 8741120193], "tags": {"addr:city": "Guaycar\u00e1", "addr:street": "Carretera Interamericana Sur", "amenity": "bank", "building": "yes", "name": "Coopealianza"}}]}